     2.11           OBSERVATION DATA    G (GPS)             RINEX VERSION / TYPE
teqc  2018Jun8                          20210209 21:30:48UTCPGM / RUN BY / DATE
OSX ker:10.11.6|Core i5|gcc 4.2 -m64|OSX ker:10.10+|=+      COMMENT
teqc  2019Feb25     UNAVCO Archive Ops  20200530 00:58:00UTCCOMMENT
Solaris x86 5.10|AMD64|cc SC5.8 -xarch=amd64|=+|=+          COMMENT
BIT 2 OF LLI FLAGS DATA COLLECTED UNDER A/S CONDITION       COMMENT
P101                                                        MARKER NAME
                                                            MARKER NUMBER
Glen Mattioli       UNAVCO                                  OBSERVER / AGENCY
4520250595          TRIMBLE NETRS       1.3-2               REC # / TYPE / VERS
0220365594          TRM29659.00     SCIT                    ANT # / TYPE
 -1728217.5787 -4447317.1429  4221483.4165                  APPROX POSITION XYZ
        0.0083        0.0000        0.0000                  ANTENNA: DELTA H/E/N
     1     1                                                WAVELENGTH FACT L1/2
     7    L1    L2    C1    P2    P1    S1    S2            # / TYPES OF OBSERV
    30.0000                                                 INTERVAL
    18                                                      LEAP SECONDS
input file: p101202005290000a.tgd                           COMMENT
RINEX file created by UNAVCO GPS Archive.                   COMMENT
For more information contact archive-gps@unavco.org         COMMENT
Monument ID: 19368                                          COMMENT
UNAVCO 4-char name:   P101                                  COMMENT
4-char name from Log or data file: P101                     COMMENT
Monument location: 41.692274 -111.236016 2016.1229          COMMENT
Visit ID: 123535                                            COMMENT
                                                            COMMENT
Randolph_Land_Livestock_UT_2005_CGPS                        COMMENT
                                                            COMMENT
doi:10.7283/T5JD4TQS                                        COMMENT
End of DB comments                                          COMMENT
 SNR is mapped to RINEX snr flag value [0-9]                COMMENT
  L1 & L2: min(max(int(snr_dBHz/6), 0), 9)                  COMMENT
Forced Modulo Decimation to 30 seconds                      COMMENT
  2020     5    29     0     0    0.0000000     GPS         TIME OF FIRST OBS
                                                            END OF HEADER
 20  5 29  0  0  0.0000000  0 11G15G21G26G02G25G20G05G18G29G12G13
  -9970785.480 7  -7713836.92444  23858097.680    23858087.262
        42.000          26.700
 -10340171.377 7  -7933407.32944  23516616.125    23516604.477
        42.800          26.000
  -9151565.933 6  -7114358.44145  23709300.172    23709291.863
        38.100          35.700
  -6783231.328 6  -4836311.65844  24178174.945    24178162.359
        40.700          24.700
 -11069728.144 7  -8532398.43645  22744363.875    22744355.098
        44.200          33.400
  -5087935.195 6  -3473397.28442  24510528.703    24510518.344
        38.900          17.800
 -22852259.999 8 -17729851.14348  21318594.008    21318582.652
        48.300          51.300
 -18462259.463 7 -14275214.46546  22010358.852    22010347.555
        47.400          36.200
 -27179614.211 8 -21142710.01848  20255535.500    20255523.324
        52.500          49.100
  -3938468.989 7  -3056044.68944  24355748.250    24355737.891
        43.500          29.600
  -8937274.285 6  -6276784.21043  23944863.602    23944852.422
        41.100          22.500
 20  5 29  0  0 30.0000000  0 11G15G21G26G02G25G20G05G18G29G12G13
 -10072845.753 6  -7793364.34144  23838675.859    23838665.207
        41.600          25.600
 -10403291.684 7  -7982591.93644  23504604.867    23504593.160
        43.000          27.100
  -9209323.050 6  -7159363.93646  23698308.992    23698301.211
        39.200          36.800
  -6712657.306 6  -4781318.95443  24191604.766    24191592.063
        40.500          23.300
 -10971773.289 7  -8456070.01845  22763003.992    22762995.625
        43.900          32.700
  -5194795.673 6  -3556665.11843  24490193.813    24490183.512
        39.800          19.000
 -22787589.430 8 -17679458.50748  21330900.617    21330888.969
        49.300          51.400
 -18526637.037 7 -14325378.76146  21998108.047    21998096.750
        47.100          36.700
 -27196389.863 8 -21155781.96048  20252343.156    20252331.039
        53.200          49.200
  -3822746.399 7  -2965871.33644  24377769.984    24377759.391
        42.900          29.700
  -9018032.657 6  -6339712.75243  23929494.977    23929484.559
        40.000          22.000
 20  5 29  0  1  0.0000000  0 11G15G21G26G02G25G20G05G18G29G12G13
 -10174816.236 7  -7872821.80744  23819271.570    23819260.977
        42.300          27.300
 -10466286.845 7  -8031679.00744  23492617.313    23492605.488
        43.700          27.000
  -9266604.825 6  -7203999.06246  23687408.914    23687400.371
        39.600          36.000
  -6642041.283 6  -4726293.52043  24205042.953    24205029.723
        40.600          22.900
 -10873575.952 7  -8379552.65645  22781690.352    22781681.867
        43.600          33.000
  -5301560.597 6  -3639858.49543  24469877.141    24469866.137
        39.500          19.300
 -22722476.712 8 -17628721.33748  21343291.328    21343279.563
        48.600          51.400
 -18590811.168 7 -14375384.55146  21985895.992    21985884.871
        47.900          36.200
 -27212734.049 8 -21168517.69348  20249232.766    20249220.883
        52.600          49.100
  -3707009.663 7  -2875686.97744  24399794.070    24399783.418
        42.600          28.600
  -9098562.712 6  -6402463.44843  23914170.570    23914160.328
        39.800          21.800
 20  5 29  0  1 30.0000000  0 11G15G21G26G02G25G20G05G18G29G12G13
 -10276693.723 7  -7952206.80244  23799885.117    23799874.289
        42.000          27.600
 -10529157.134 7  -8080668.78644  23480653.359    23480641.184
        43.400          27.900
  -9323409.533 6  -7248262.43646  23676599.906    23676591.305
        39.900          36.400
  -6571383.376 6  -4671235.46443  24218489.375    24218475.910
        41.100          22.800
 -10775139.314 7  -8302848.82145  22800421.914    22800413.723
        43.700          32.500
  -5408228.390 6  -3722976.14543  24449578.820    24449568.754
        40.100          19.300
 -22656924.383 8 -17577641.61148  21355765.391    21355753.332
        48.700          51.200
 -18654781.689 7 -14425231.66846  21973722.539    21973711.535
        47.000          36.700
 -27228645.441 8 -21180916.17748  20246205.164    20246193.047
        52.700          49.100
  -3591261.701 6  -2785493.85644  24421819.961    24421809.953
        41.500          28.400
  -9178861.117 6  -6465033.58743  23898891.172    23898879.348
        40.900          20.900
 20  5 29  0  2  0.0000000  0 11G15G21G26G02G25G20G05G18G29G12G13
 -10378475.972 7  -8031517.58444  23780516.359    23780506.176
        42.200          27.200
 -10591903.729 7  -8129562.18444  23468713.023    23468700.730
        44.000          26.900
  -9379736.401 6  -7292153.48246  23665880.508    23665872.551
        39.200          36.100
  -6500684.545 6  -4616145.49944  24231942.922    24231928.754
        41.200          24.700
 -10676467.410 7  -8225961.66545  22819199.430    22819190.184
        43.900          32.400
  -5514798.021 6  -3806017.33543  24429298.945    24429289.055
        39.100          20.900
 -22590936.066 8 -17526222.15148  21368322.539    21368310.539
        49.000          51.300
 -18718549.411 7 -14474920.77046  21961588.281    21961576.809
        47.200          36.900
 -27244124.091 8 -21192977.47548  20243259.508    20243247.625
        52.100          49.300
  -3475505.988 6  -2695294.71344  24443847.445    24443837.203
        40.000          25.900
  -9258925.488 6  -6527421.34143  23883654.180    23883643.996
        39.400          21.800
 20  5 29  0  2 30.0000000  0 11G15G21G26G02G25G20G05G18G29G12G13
 -10480158.816 6  -8110750.91844  23761166.602    23761156.301
        41.100          27.300
 -10654525.060 7  -8178357.96744  23456796.328    23456784.621
        42.800          28.100
  -9435582.412 6  -7335669.82345  23655253.313    23655245.238
        38.500          35.500
  -6429944.005 6  -4561023.00944  24245403.586    24245390.355
        40.600          26.200
 -10577561.919 7  -8148892.49745  22838019.898    22838011.590
        43.700          31.900
  -5621267.028 6  -3888980.08243  24409038.922    24409028.094
        38.800          20.600
 -22524512.422 8 -17474463.47848  21380962.203    21380950.730
        48.800          51.100
 -18782112.782 7 -14524450.64046  21949492.625    21949481.035
        47.400          37.200
 -27259166.992 8 -21204699.22448  20240397.109    20240385.285
        53.000          49.400
  -3359743.985 6  -2605090.67244  24465875.289    24465865.984
        38.900          24.500
  -9338751.686 6  -6589623.54643  23868464.297    23868453.059
        40.400          21.700
 20  5 29  0  3  0.0000000  0 11G15G21G26G02G25G20G05G18G29G12G13
 -10581739.765 6  -8189904.84444  23741836.367    23741826.242
        41.300          26.800
 -10717021.905 7  -8227056.75544  23444903.133    23444891.777
        42.600          28.200
  -9490946.627 6  -7378810.74445  23644717.320    23644709.949
        38.600          35.300
  -6359162.693 7  -4505868.79844  24258873.438    24258859.563
        42.400          24.300
 -10478426.734 7  -8071644.34545  22856884.805    22856876.027
        43.700          31.900
  -5727634.636 6  -3971863.84643  24388797.977    24388787.441
        38.300          20.600
 -22457657.109 8 -17422368.44348  21393684.602    21393673.012
        48.700          51.100
 -18845472.429 7 -14573821.76946  21937435.375    21937424.137
        46.900          37.300
 -27273773.767 8 -21216081.12748  20237617.367    20237605.484
        52.700          49.300
  -3243979.105 6  -2514884.39043  24487905.680    24487896.082
        36.600          21.500
  -9418337.147 6  -6651638.15943  23853320.391    23853309.211
        40.500          22.300
 20  5 29  0  3 30.0000000  0 11G15G21G26G02G25G20G05G18G29G12G13
 -10683215.528 6  -8268976.81144  23722525.773    23722515.883
        40.900          27.600
 -10779394.956 7  -8275659.06044  23433034.188    23433022.598
        42.400          28.200
  -9545827.064 6  -7421574.69345  23634274.117    23634265.926
        39.000          35.200
  -6288340.568 6  -4450682.75244  24272349.914    24272337.094
        41.300          24.700
 -10379064.610 7  -7994219.35845  22875792.570    22875784.320
        43.600          31.600
  -5833898.761 6  -4054666.98743  24368576.711    24368565.824
        38.300          20.600
 -22390372.618 8 -17369938.97648  21406488.594    21406476.594
        48.900          51.100
 -18908627.817 7 -14623033.72046  21925417.602    21925405.953
        47.000          37.100
 -27287942.774 8 -21227121.91748  20234921.125    20234909.008
        52.900          49.300
  -3128214.040 5  -2424677.99343  24509934.578    24509925.332
        35.900          20.100
  -9497678.692 6  -6713462.67643  23838222.102    23838210.512
        41.700          22.500
 20  5 29  0  4  0.0000000  0 11G15G21G26G02G25G20G05G18G29G12G13
 -10784582.925 6  -8347964.33744  23703236.836    23703226.301
        41.700          28.500
 -10841644.019 7  -8324164.78444  23421188.289    23421177.168
        42.200          26.800
  -9600222.207 6  -7463960.50545  23623922.555    23623914.656
        38.800          34.600
  -6217477.626 6  -4395464.92244  24285835.641    24285822.176
        41.500          25.300
 -10279478.822 7  -7916620.08345  22894743.313    22894735.004
        43.600          31.900
  -5940057.938 6  -4137388.33843  24348374.977    24348363.914
        38.600          20.100
 -22322661.318 8 -17317176.93148  21419373.727    21419361.902
        49.200          51.200
 -18971578.920 7 -14672086.49146  21913438.164    21913426.809
        47.900          37.400
 -27301673.117 9 -21237820.89148  20232308.461    20232296.402
        54.100          49.300
  -3012451.707 6  -2334473.70543  24531963.695    24531953.863
        36.500          18.600
  -9576772.937 6  -6775094.50943  23823171.102    23823158.984
        40.500          22.000
 20  5 29  0  4 30.0000000  0 11G15G21G26G02G25G20G05G18G29G12G13
 -10885838.747 7  -8426864.92144  23683968.234    23683958.168
        42.200          27.800
 -10903769.222 7  -8372573.96544  23409366.180    23409354.883
        42.100          29.000
  -9654130.283 6  -7505966.77145  23613664.711    23613656.637
        38.700          34.400
  -6146573.927 6  -4340215.34244  24299327.313    24299314.375
        41.800          25.000
 -10179672.241 7  -7838848.76945  22913736.227    22913727.332
        43.400          31.600
  -6046110.431 6  -4220026.56643  24328193.188    24328182.477
        37.300          20.600
 -22254525.627 8 -17264084.19848  21432339.820    21432327.469
        48.900          51.000
 -19034325.386 7 -14720979.79846  21901497.953    21901486.422
        47.200          37.100
 -27314963.077 8 -21248176.71348  20229779.414    20229767.414
        52.800          49.300
  -2896694.599 6  -2244273.42243  24553992.359    24553981.590
        38.100          18.600
  -9655616.588 6  -6836531.04643  23808166.922    23808156.035
        40.900          22.800
 20  5 29  0  5  0.0000000  0 11G15G21G26G02G25G20G05G18G29G12G13
 -10986979.835 6  -8505676.10644  23664721.781    23664711.480
        40.800          28.000
 -10965770.851 6  -8420886.86744  23397568.320    23397556.027
        41.500          28.200
  -9707549.617 6  -7547592.19845  23603499.789    23603491.422
        39.200          35.300
  -6075629.841 6  -4284934.27544  24312827.617    24312814.328
        41.400          26.000
 -10079647.952 7  -7760907.80145  22932770.539    22932761.469
        44.400          31.900
  -6152054.541 6  -4302580.31843  24308032.945    24308022.176
        37.100          19.900
 -22185968.088 8 -17210662.74848  21445385.336    21445373.453
        49.800          50.800
 -19096867.054 7 -14769713.54046  21889596.570    21889584.980
        47.300          36.900
 -27327811.673 8 -21258188.60048  20227334.266    20227322.383
        52.900          49.400
  -2780945.293 6  -2154079.23543  24576017.703    24576007.813
        39.300          19.900
  -9734206.641 6  -6897770.01443  23793210.984    23793200.449
        39.300          21.500
 20  5 29  0  5 30.0000000  0 11G15G21G26G02G25G20G05G18G29G12G13
 -11088002.597 6  -8584395.06744  23645497.766    23645487.230
        41.700          28.300
 -11027648.520 6  -8469103.16744  23385792.930    23385781.164
        41.100          29.200
  -9760478.413 6  -7588835.37945  23593428.281    23593419.328
        39.300          35.900
  -6004645.093 7  -4229621.54944  24326336.094    24326322.746
        42.100          25.900
  -9979408.869 7  -7682799.47345  22951845.313    22951836.770
        44.100          32.600
  -6257888.489 6  -4385048.24743  24287892.188    24287882.766
        36.600          21.100
 -22116990.867 8 -17156914.27148  21458511.625    21458499.566
        49.000          50.700
 -19159203.518 7 -14818287.38446  21877734.117    21877722.762
        47.100          37.000
 -27340217.290 8 -21267855.31848  20224973.625    20224961.742
        53.500          49.400
  -2665206.500 6  -2063893.21943  24598043.398    24598032.336
        40.600          22.500
  -9812539.450 6  -6958808.53343  23778304.672    23778294.605
        39.400          22.900
 20  5 29  0  6  0.0000000  0 11G15G21G26G02G25G20G05G18G29G12G13
 -11188904.152 6  -8663019.59344  23626297.008    23626286.238
        41.300          27.300
 -11089402.885 7  -8517223.40245  23374041.250    23374030.070
        42.700          30.200
  -9812915.216 6  -7629695.20646  23583449.398    23583440.855
        39.900          36.200
  -5933620.254 7  -4174277.53944  24339851.234    24339838.414
        42.100          26.200
  -9878958.183 7  -7604526.25945  22970960.344    22970951.566
        44.000          32.300
  -6363610.933 5  -4467429.25943  24267773.758    24267764.746
        35.800          21.100
 -22047596.399 8 -17102840.67348  21471716.570    21471704.922
        48.800          50.600
 -19221334.747 7 -14866701.29946  21865911.023    21865899.902
        47.000          37.600
 -27352179.176 8 -21277176.26748  20222697.359    20222685.301
        53.000          49.500
  -2549480.914 6  -1973717.54944  24620064.977    24620054.793
        41.800          25.500
  -9890612.321 6  -7019644.48743  23763448.156    23763438.090
        39.300          22.600
 20  5 29  0  6 30.0000000  0 11G15G21G26G02G25G20G05G18G29G12G13
 -11289681.167 6  -8741547.06544  23607119.891    23607109.063
        41.800          27.600
 -11151033.922 6  -8565247.53844  23362313.086    23362301.906
        41.800          28.700
  -9864858.523 6  -7670170.49945  23573564.578    23573556.270
        40.700          35.700
  -5862555.346 6  -4118902.33944  24353374.695    24353361.641
        40.600          26.400
  -9778299.091 7  -7526090.65745  22990114.820    22990106.629
        44.100          32.500
  -6469220.326 6  -4549722.19843  24247677.164    24247666.863
        37.100          21.300
 -21977788.246 8 -17048444.72648  21485000.898    21484989.133
        48.300          50.700
 -19283260.643 7 -14914955.21646  21854126.711    21854115.473
        47.300          37.000
 -27363695.991 8 -21286150.41048  20220505.883    20220493.883
        53.100          49.400
  -2433771.355 7  -1883554.36144  24642083.563    24642073.848
        42.000          26.800
  -9968422.199 6  -7080275.50943  23748642.359    23748630.887
        39.900          22.500
 20  5 29  0  7  0.0000000  0 11G15G21G26G02G25G20G05G18G29G12G13
 -11390330.387 7  -8819974.96244  23587966.414    23587956.465
        42.200          27.100
 -11212541.651 7  -8613175.57744  23350608.789    23350597.316
        42.300          29.800
  -9916306.307 6  -7710259.66446  23563774.367    23563765.883
        40.200          36.000
  -5791450.013 6  -4063495.62644  24366905.648    24366892.652
        40.800          24.800
  -9677434.156 7  -7447494.65045  23009308.969    23009300.660
        43.900          31.700
  -6574714.603 6  -4631925.43343  24227602.805    24227592.387
        38.200          21.800
 -21907568.185 8 -16993727.80348  21498363.180    21498351.414
        48.900          50.600
 -19344980.486 7 -14963048.56946  21842382.070    21842370.539
        47.200          37.600
 -27374766.143 8 -21294776.50348  20218399.063    20218387.063
        52.700          49.500
  -2318080.122 6  -1793405.46444  24664099.430    24664089.129
        41.300          26.400
 -10045965.520 6  -7140698.80243  23733885.359    23733875.059
        40.000          23.000
 20  5 29  0  7 30.0000000  0 11G15G21G26G02G25G20G05G18G29G12G13
 -11490848.437 7  -8898300.65544  23568838.703    23568827.816
        43.300          28.300
 -11273926.172 7  -8661007.62945  23338928.625    23338916.449
        43.400          30.200
  -9967256.972 6  -7749961.45546  23554079.039    23554070.145
        40.300          36.200
  -5720304.495 6  -4008057.60043  24380444.242    24380431.070
        40.600          23.900
  -9576366.439 7  -7368740.62745  23028541.125    23028533.051
        43.700          32.300
  -6680092.309 6  -4714037.85143  24207550.594    24207539.766
        39.000          22.000
 -21836938.583 8 -16938691.75948  21511803.695    21511792.047
        48.900          50.500
 -19406494.105 7 -15010981.24246  21830676.281    21830664.984
        47.500          38.000
 -27385388.274 8 -21303053.48348  20216377.844    20216365.727
        52.800          49.500
  -2202409.462 6  -1703272.61444  24686110.172    24686100.691
        41.300          25.600
 -10123238.710 6  -7200911.63843  23719181.063    23719170.059
        40.500          22.900
 20  5 29  0  8  0.0000000  0 11G15G21G26G02G25G20G05G18G29G12G13
 -11591232.758 6  -8976522.14944  23549735.930    23549725.688
        41.900          28.600
 -11335187.904 7  -8708743.99644  23327270.375    23327258.375
        43.600          29.600
 -10017709.450 6  -7789275.05646  23544478.836    23544469.883
        40.700          36.800
  -5649119.231 6  -3952588.57044  24393990.063    24393977.535
        39.500          27.100
  -9475099.554 7  -7289831.40545  23047812.070    23047803.645
        43.500          30.900
  -6785352.288 6  -4796058.52243  24187519.773    24187509.180
        39.600          22.500
 -21765902.618 8 -16883339.07448  21525321.344    21525309.637
        48.800          50.300
 -19467801.803 7 -15058753.45346  21819009.891    21818998.652
        47.500          37.900
 -27395562.010 8 -21310981.06748  20214441.820    20214429.879
        52.700          49.600
  -2086762.986 6  -1613158.61544  24708117.320    24708107.547
        40.300          27.300
 -10200239.460 6  -7260912.17644  23704528.438    23704517.141
        40.500          24.200
 20  5 29  0  8 30.0000000  0 11G15G21G26G02G25G20G05G18G29G12G13
 -11691479.137 7  -9054636.12044  23530659.078    23530649.188
        42.400          28.100
 -11396326.418 7  -8756384.36444  23315636.164    23315624.457
        44.200          29.100
 -10067661.420 6  -7828198.63646  23534972.625    23534964.141
        40.600          36.500
  -5577893.749 6  -3897088.26744  24407543.805    24407531.160
        40.300          24.400
  -9373635.649 7  -7210768.67545  23067120.102    23067111.793
        43.800          31.700
  -6890491.896 6  -4877985.44543  24167512.211    24167501.969
        40.000          22.300
 -21694461.672 8 -16827670.81948  21538916.078    21538904.078
        48.400          50.100
 -19528902.469 7 -15106364.32146  21807382.758    21807371.461
        47.200          37.400
 -27405284.770 8 -21318557.24648  20212591.680    20212579.738
        53.500          49.600
  -1971142.487 6  -1523064.85544  24730120.539    24730109.652
        40.500          25.500
 -10276963.811 6  -7320697.32243  23689927.773    23689917.004
        40.400          23.800
 20  5 29  0  9  0.0000000  0 11G15G21G26G02G25G20G05G18G29G12G13
 -11791585.039 7  -9132640.67544  23511610.125    23511599.473
        42.400          28.000
 -11457342.302 7  -8803929.16344  23304025.227    23304013.168
        43.700          28.800
 -10117112.075 7  -7866731.59946  23525563.563    23525554.316
        42.100          37.400
  -5506628.399 6  -3841556.88444  24421105.609    24421092.730
        39.600          24.000
  -9271978.579 7  -7131555.42045  23086464.828    23086456.051
        42.900          31.300
  -6995510.457 6  -4959818.00943  24147527.781    24147517.246
        40.800          22.600
 -21622619.342 8 -16771689.79648  21552587.234    21552575.469
        48.600          50.000
 -19589796.681 7 -15153814.33246  21795794.977    21795783.914
        47.400          37.800
 -27414556.626 8 -21325782.05948  20210827.305    20210815.598
        53.200          49.500
  -1855551.315 6  -1432993.96544  24752116.414    24752105.938
        38.700          24.500
 -10353408.989 6  -7380264.95243  23675380.906    23675369.727
        41.100          23.000
 20  5 29  0  9 30.0000000  0 11G15G21G26G02G25G20G05G18G29G12G13
 -11891546.777 7  -9210532.88844  23492588.000    23492577.465
        42.600          28.100
 -11518235.596 7  -8851378.45044  23292437.172    23292425.582
        44.300          29.100
 -10166059.336 7  -7904872.29546  23516248.594    23516240.051
        42.000          36.100
  -5435323.182 6  -3785994.39044  24434674.852    24434661.621
        39.900          24.400
  -9170130.811 7  -7052193.56945  23105845.969    23105837.543
        42.900          31.100
  -7100405.768 6  -5041554.56143  24127567.008    24127556.355
        40.000          21.700
 -21550377.594 8 -16715397.53248  21566334.586    21566322.410
        48.200          50.100
 -19650483.624 7 -15201102.83346  21784246.781    21784235.543
        47.400          37.800
 -27423375.638 8 -21332654.01848  20209149.117    20209137.176
        52.800          49.500
  -1739991.261 6  -1342947.32243  24774106.133    24774096.418
        37.100          22.900
 -10429571.440 6  -7439612.28043  23660888.375    23660876.316
        40.600          21.800
 20  5 29  0 10  0.0000000  0 11G15G21G26G02G25G20G05G18G29G12G13
 -11991360.969 7  -9288310.12444  23473593.992    23473583.281
        42.000          28.500
 -11579006.087 7  -8898732.03244  23280872.984    23280860.809
        43.900          29.300
 -10214501.606 6  -7942619.50946  23507030.109    23507021.566
        41.300          36.600
  -5363978.068 6  -3730400.85344  24448250.477    24448238.066
        40.300          25.400
  -9068095.274 7  -6972685.40945  23125261.875    23125254.094
        42.700          31.200
  -7205176.248 6  -5123193.83843  24107630.273    24107618.918
        40.200          21.300
 -21477738.820 8 -16658795.90148  21580157.422    21580145.188
        48.500          49.900
 -19710963.017 8 -15248229.61146  21772737.641    21772726.461
        48.000          37.700
 -27431740.600 8 -21339172.17248  20207557.313    20207545.195
        52.800          49.500
  -1624465.396 6  -1252927.34843  24796090.781    24796079.836
        36.200          22.000
 -10505448.155 6  -7498736.93243  23646448.297    23646437.527
        40.500          22.900
 20  5 29  0 10 30.0000000  0 11G15G21G26G02G25G20G05G18G29G12G13
 -12091024.624 6  -9365970.05344  23454628.617    23454617.613
        41.900          29.100
 -11639653.943 7  -8945990.05744  23269332.078    23269320.195
        44.500          29.900
 -10262437.818 6  -7979972.38846  23497907.617    23497899.367
        41.000          36.400
  -5292593.174 6  -3674776.29344  24461834.703    24461822.586
        39.800          24.700
  -8965875.433 7  -6893033.64545  23144714.375    23144705.480
        43.400          30.700
  -7309820.527 6  -5204734.79643  24087716.266    24087705.203
        39.600          20.100
 -21404706.269 7 -16601887.43548  21594054.820    21594042.879
        47.800          49.800
 -19771235.017 7 -15295194.78446  21761268.563    21761257.031
        47.700          38.300
 -27439650.704 8 -21345335.89348  20206052.094    20206040.270
        52.600          49.500
  -1508976.422 6  -1162936.12143  24818068.133    24818057.480
        36.800          21.100
 -10581036.249 6  -7557636.69443  23632064.906    23632053.727
        41.200          22.500
 20  5 29  0 11  0.0000000  0 11G15G21G26G02G25G20G05G18G29G12G13
 -12190534.223 7  -9443509.93944  23435692.461    23435681.691
        42.300          29.000
 -11700179.192 7  -8993152.54044  23257814.633    23257801.813
        45.100          29.600
 -10309865.963 6  -8016929.35046  23488882.633    23488874.793
        41.400          36.800
  -5221168.538 6  -3619120.78544  24475426.469    24475413.707
        39.700          25.800
  -8863473.803 7  -6813240.21745  23164200.734    23164192.543
        43.000          30.200
  -7414336.652 6  -5286175.88843  24067827.484    24067816.715
        38.900          20.400
 -21331281.253 8 -16544673.14848  21608027.398    21608015.105
        48.400          49.900
 -19831298.895 8 -15341997.78646  21749838.867    21749827.805
        48.400          38.500
 -27447104.045 8 -21351143.68948  20204633.820    20204621.586
        52.800          49.500
  -1393526.394 6  -1072975.22243  24840037.063    24840026.938
        37.300          21.300
 -10656332.132 6  -7616308.77743  23617736.141    23617725.313
        40.400          22.300
 20  5 29  0 11 30.0000000  0 11G15G21G26G02G25G20G05G18G29G12G13
 -12289886.910 7  -9520927.56144  23416786.688    23416775.742
        43.000          28.900
 -11760582.271 7  -9040219.82844  23246319.836    23246307.953
        44.500          29.600
 -10356785.062 6  -8053489.66746  23479954.195    23479946.004
        41.300          38.000
  -5149704.504 6  -3563434.58643  24489025.563    24489012.508
        40.200          22.800
  -8760893.830 7  -6733307.82945  23183721.445    23183713.020
        42.500          31.100
  -7518723.525 6  -5367516.25843  24047963.289    24047952.285
        38.900          19.600
 -21257467.347 8 -16487155.83248  21622073.461    21622061.402
        48.300          49.900
 -19891154.798 7 -15388638.72346  21738448.555    21738437.316
        47.800          38.200
 -27454100.419 8 -21356595.41548  20203302.523    20203290.582
        52.500          49.600
  -1278118.543 6   -983047.17243  24861998.844    24861988.660
        38.800          19.900
 -10731332.817 6  -7674750.81843  23603464.703    23603453.172
        40.800          22.600
 20  5 29  0 12  0.0000000  0 11G15G21G26G02G25G20G05G18G29G12G13
 -12389079.321 7  -9598220.29644  23397910.141    23397899.488
        42.300          28.300
 -11820863.539 7  -9087192.19944  23234848.383    23234836.617
        44.100          28.900
 -10403193.814 6  -8089652.31346  23471123.234    23471114.926
        41.700          38.800
  -5078201.156 6  -3507717.72143  24502632.438    24502619.441
        39.300          22.600
  -8658138.746 7  -6653238.98945  23203274.789    23203266.656
        43.200          31.200
  -7622979.463 6  -5448754.57443  24028123.766    24028113.172
        38.000          19.900
 -21183267.009 8 -16429337.39848  21636193.344    21636181.168
        48.300          49.700
 -19950802.683 8 -15435117.57046  21727097.727    21727086.488
        48.200          38.000
 -27460638.649 8 -21361690.14148  20202058.336    20202046.160
        53.200          49.600
  -1162755.413 6   -893153.96043  24883952.242    24883941.414
        39.600          20.100
 -10806035.316 6  -7732960.51143  23589249.398    23589237.691
        40.900          22.200
 20  5 29  0 12 30.0000000  0 11G15G21G26G02G25G20G05G18G29G12G13
 -12488107.848 6  -9675385.33144  23379066.328    23379055.148
        41.900          28.800
 -11881022.256 7  -9134069.06844  23223400.930    23223388.871
        44.300          29.700
 -10449090.132 6  -8125415.66846  23462389.133    23462380.883
        40.900          37.900
  -5006657.885 6  -3451969.78743  24516246.938    24516234.352
        40.700          22.800
  -8555210.887 7  -6573035.51444  23222860.883    23222853.219
        42.300          29.600
  -7727102.501 6  -5529889.33743  24008309.914    24008299.262
        37.900          19.900
 -21108682.728 8 -16371219.79048  21650386.367    21650374.250
        48.600          49.700
 -20010241.622 8 -15481433.59546  21715786.633    21715775.570
        48.700          38.800
 -27466717.022 8 -21366426.53348  20200901.641    20200889.875
        52.900          49.800
  -1047438.821 6   -803297.02243  24905895.922    24905884.801
        40.200          20.100
 -10880436.239 7  -7790935.21944  23575090.797    23575079.969
        42.000          24.400
 20  5 29  0 13  0.0000000  0 11G15G21G26G02G25G20G05G18G29G12G13
 -12586969.875 6  -9752420.63644  23360252.539    23360242.063
        41.600          28.000
 -11941059.359 7  -9180851.16644  23211976.070    23211964.246
        44.500          29.000
 -10494473.136 6  -8160779.03646  23453752.359    23453745.105
        41.700          37.900
  -4935075.419 6  -3396191.28843  24529868.156    24529855.805
        41.400          22.500
  -8452113.735 7  -6492700.12244  23242479.734    23242471.426
        42.500          29.600
  -7831091.227 6  -5610919.42243  23988522.047    23988511.043
        38.200          21.300
 -21033717.005 8 -16312804.96548  21664651.430    21664639.723
        48.500          49.500
 -20069471.873 8 -15527587.01246  21704515.641    21704504.695
        48.900          38.200
 -27472334.708 8 -21370803.95448  20199832.328    20199820.445
        52.700          49.700
   -932172.119 6   -713478.93443  24927830.000    24927819.816
        40.900          19.900
 -10954532.412 6  -7848672.44743  23560990.188    23560979.887
        41.400          23.500
 20  5 29  0 13 30.0000000  0 11G15G21G26G02G25G20G05G18G29G12G13
 -12685661.381 6  -9829323.02444  23341472.617    23341462.199
        41.500          29.100
 -12000974.539 7  -9227538.26444  23200574.977    23200562.742
        44.100          29.700
 -10539341.138 6  -8195741.09146  23445215.031    23445206.957
        40.900          38.200
  -4863453.737 6  -3340382.22743  24543497.820    24543485.176
        40.800          22.600
  -8348850.113 6  -6412235.01644  23262130.109    23262122.211
        41.600          28.600
  -7934943.941 6  -5691843.52343  23968759.594    23968748.707
        38.700          20.100
 -20958372.586 8 -16254095.04348  21678989.656    21678977.891
        48.400          49.500
 -20128492.927 7 -15573577.42646  21693284.172    21693272.816
        47.900          38.500
 -27477490.391 8 -21374821.38348  20198851.461    20198839.344
        52.300          49.800
   -816956.987 6   -623700.98043  24949755.383    24949744.262
        40.400          20.900
 -11028320.748 6  -7906169.83543  23546948.055    23546937.461
        40.000          22.900
 20  5 29  0 14  0.0000000  0 12G15G21G16G26G02G25G20G05G18G29G12G13
 -12784179.309 7  -9906090.19244  23322725.852    23322714.789
        42.500          29.300
 -12060767.937 7  -9274130.46145  23189196.453    23189184.570
        44.400          30.500
   -226251.65715                  25493438.891
        33.400
 -10583693.105 6  -8230301.05846  23436775.391    23436767.082
        40.800          38.000
  -4791792.531 6  -3284542.37943  24557133.805    24557121.688
        40.000          22.000
  -8245423.264 7  -6331642.70144  23281812.414    23281803.402
        42.800          28.300
  -8038659.154 6  -5772660.49043  23949022.680    23949011.559
        39.200          21.700
 -20882651.908 8 -16195091.93148  21693398.516    21693386.574
        48.700          49.500
 -20187304.860 8 -15619404.88446  21682092.859    21682081.328
        48.400          38.000
 -27482183.270 8 -21378478.17348  20197958.305    20197946.598
        51.500          49.800
   -701797.378 6   -533966.34843  24971668.336    24971658.855
        41.100          20.900
 -11101798.317 6  -7963425.02744  23532966.211    23532955.559
        41.500          26.300
 20  5 29  0 14 30.0000000  0 12G15G21G16G26G02G25G20G05G18G29G12G13
 -12882520.828 7  -9982719.89444  23304010.797    23304000.496
        42.800          29.600
 -12120440.263 7  -9320628.31945  23177841.039    23177829.215
        43.400          30.200
   -318719.21514                  25475843.070
        29.100
 -10627527.694 6  -8264457.87746  23428434.141    23428425.305
        41.700          38.500
  -4720092.330 6  -3228672.13343  24570778.250    24570765.898
        40.500          21.300
  -8141836.361 7  -6250925.67944  23301524.570    23301515.852
        43.600          29.000
  -8142235.445 6  -5853369.21443  23929312.422    23929302.063
        39.400          21.100
 -20806557.309 8 -16135797.45648  21707878.445    21707867.266
        48.700          49.200
 -20245907.513 7 -15665069.26146  21670940.906    21670930.254
        47.600          38.500
 -27486412.430 8 -21381773.62348  20197153.844    20197141.727
        52.800          49.700
   -586695.521 6   -444276.72743  24993572.602    24993562.184
        39.300          20.400
 -11174962.107 6  -8020435.73743  23519043.977    23519033.266
        40.700          23.000
 20  5 29  0 15  0.0000000  0 12G15G21G16G26G02G25G20G05G18G29G12G13
 -12980681.965 7 -10059209.02444  23285331.781    23285321.070
        43.400          29.700
 -12179990.602 7  -9367031.12044  23166509.125    23166496.715
        43.600          29.900
   -410890.55615                  25458303.078
        30.500
 -10670843.007 6  -8298210.06046  23420190.531    23420182.574
        41.400          38.900
  -4648352.565 6  -3172771.04543  24584430.383    24584417.738
        39.900          21.300
  -8038091.757 7  -6170085.79244  23321266.203    23321257.660
        42.500          29.500
  -8245670.773 6  -5933968.09343  23909628.563    23909618.730
        39.400          22.300
 -20730091.341 8 -16076213.59548  21722430.203    21722418.086
        49.000          49.200
 -20304300.007 7 -15710569.87746  21659829.164    21659818.219
        47.300          37.900
 -27490176.065 8 -21384706.33248  20196437.523    20196425.465
        52.800          49.700
   -471653.224 6   -354633.53143  25015464.531    25015454.582
        38.200          21.100
 -11247808.351 6  -8077199.01643  23505181.078    23505170.543
        40.800          22.500
 20  5 29  0 15 30.0000000  0 12G15G21G16G26G02G25G20G05G18G29G12G13
 -13078663.431 7 -10135558.18045  23266686.109    23266675.750
        43.200          30.500
 -12239423.339 7  -9413342.28345  23155199.117    23155187.352
        43.200          31.100
   -502767.311 5                  25440819.914
        31.300
 -10713641.897 6  -8331559.83646  23412046.992    23412038.625
        41.600          39.500
  -4576577.331 6  -3116842.36643  24598089.125    24598076.246
        40.500          22.000
  -7934196.646 7  -6089128.61444  23341036.492    23341028.359
        42.700          29.100
  -8348967.574 6  -6014459.01343  23889972.773    23889962.473
        40.400          23.000
 -20653260.813 8 -16016345.66748  21737049.734    21737038.145
        48.300          38.000
 -27493477.336 8 -21387278.75948  20195809.227    20195797.285
        51.700          49.800
   -356676.404 6   -265041.43543  25037343.914    25037333.555
        37.100          20.100
 -11320337.934 6  -8133715.52444  23491379.383    23491368.555
        41.100          25.000
